{
  "metadata": {
    "generated_at": "2025-08-17T00:52:51.906577",
    "prediction_period": "Next month",
    "total_predictions": 23,
    "validation_enabled": true
  },
  "diversity_metrics": {
    "disaster_types_predicted": 14,
    "regions_covered": 4,
    "type_coverage_ratio": 0.5833333333333334
  },
  "predictions": [
    {
      "country_name": "Ukraine",
      "region_name": "Europe",
      "district_name": "Cherkaska",
      "predicted_date": "2025-09",
      "disaster_type_name": "Flood",
      "probability": 0.22602247191011235,
      "estimated_impact": 5832,
      "latitude": 49.26000762479106,
      "longitude": 31.35221680007639,
      "validation_confidence": 1.0
    },
    {
      "country_name": "Guinea-Bissau",
      "region_name": "Africa",
      "district_name": "Bafata",
      "predicted_date": "2025-09",
      "disaster_type_name": "Storm Surge",
      "probability": 0.15825,
      "estimated_impact": 2636,
      "latitude": 12.16170226761862,
      "longitude": -14.7075784151753,
      "validation_confidence": 1.0
    },
    {
      "country_name": "Costa Rica",
      "region_name": "Americas",
      "district_name": "Cartago",
      "predicted_date": "2025-09",
      "disaster_type_name": "Volcanic Eruption",
      "probability": 0.20362499999999997,
      "estimated_impact": 5262,
      "latitude": 9.818591822441736,
      "longitude": -83.68163407359094,
      "validation_confidence": 1.0
    },
    {
      "country_name": "Costa Rica",
      "region_name": "Americas",
      "district_name": "Alajuela",
      "predicted_date": "2025-09",
      "disaster_type_name": "Cyclone",
      "probability": 0.15775,
      "estimated_impact": 5262,
      "latitude": 10.56320608276923,
      "longitude": -84.61035981141285,
      "validation_confidence": 1.0
    },
    {
      "country_name": "Azerbaijan",
      "region_name": "Europe",
      "district_name": "Absheron",
      "predicted_date": "2025-09",
      "disaster_type_name": "Other",
      "probability": 0.1130735294117647,
      "estimated_impact": 187,
      "latitude": 40.34294748875374,
      "longitude": 49.32936753795624,
      "validation_confidence": 1.0
    },
    {
      "country_name": "Marshall Islands",
      "region_name": "Asia Pacific",
      "district_name": "Ratak Chain",
      "predicted_date": "2025-09",
      "disaster_type_name": "Storm Surge",
      "probability": 0.11325000000000002,
      "estimated_impact": 282,
      "latitude": 8.480805847599738,
      "longitude": 170.8506079001802,
      "validation_confidence": 1.0
    },
    {
      "country_name": "Kyrgyzstan",
      "region_name": "Europe",
      "district_name": "Batken",
      "predicted_date": "2025-09",
      "disaster_type_name": "Fire",
      "probability": 0.07510253906250001,
      "estimated_impact": 330,
      "latitude": 39.86234060952241,
      "longitude": 70.88724424251212,
      "validation_confidence": 1.0
    },
    {
      "country_name": "Barbados",
      "region_name": "Americas",
      "district_name": "Christ Church",
      "predicted_date": "2025-09",
      "disaster_type_name": "Complex Emergency",
      "probability": 0.11265625000000001,
      "estimated_impact": 6578,
      "latitude": 13.07632473312884,
      "longitude": -59.52675256522866,
      "validation_confidence": 1.0
    },
    {
      "country_name": "Burundi",
      "region_name": "Africa",
      "district_name": "Bubanza",
      "predicted_date": "2025-09",
      "disaster_type_name": "Epidemic",
      "probability": 0.3226802884615385,
      "estimated_impact": 0,
      "latitude": -3.124529931258907,
      "longitude": 29.39952292527047,
      "validation_confidence": 1.0
    },
    {
      "country_name": "Cambodia",
      "region_name": "Asia Pacific",
      "district_name": "Banteay Meanchey",
      "predicted_date": "2025-09",
      "disaster_type_name": "Pluvial/Flash Flood",
      "probability": 0.04515542763157894,
      "estimated_impact": 489,
      "latitude": 13.70492447394911,
      "longitude": 103.0159012487163,
      "validation_confidence": 1.0
    },
    {
      "country_name": "Tajikistan",
      "region_name": "Europe",
      "district_name": "Gorno-Badakhshan Autonomous",
      "predicted_date": "2025-09",
      "disaster_type_name": "Heat Wave",
      "probability": 0.02255625,
      "estimated_impact": 4502,
      "latitude": 38.09751255085135,
      "longitude": 72.86805594957839,
      "validation_confidence": 1.0
    },
    {
      "country_name": "Slovenia",
      "region_name": "Europe",
      "district_name": "Gorenjska",
      "predicted_date": "2025-09",
      "disaster_type_name": "Population Movement",
      "probability": 0.052750000000000005,
      "estimated_impact": 5751,
      "latitude": 46.30572931193277,
      "longitude": 14.14138006202956,
      "validation_confidence": 1.0
    },
    {
      "country_name": "Greece",
      "region_name": "Europe",
      "district_name": "East Macedonia and Thrace",
      "predicted_date": "2025-09",
      "disaster_type_name": "Chemical Emergency",
      "probability": 0.03,
      "estimated_impact": 927,
      "latitude": 41.17135049822589,
      "longitude": 25.13801399957687,
      "validation_confidence": 1.0
    },
    {
      "country_name": "Slovakia",
      "region_name": "Europe",
      "district_name": "Bratislava",
      "predicted_date": "2025-09",
      "disaster_type_name": "Cyclone",
      "probability": 0.09775,
      "estimated_impact": 5466,
      "latitude": 48.31737001538954,
      "longitude": 17.18342202630057,
      "validation_confidence": 1.0
    },
    {
      "country_name": "Lao People's Democratic Republic",
      "region_name": "Asia Pacific",
      "district_name": "Vientiane capital",
      "predicted_date": "2025-09",
      "disaster_type_name": "Flood",
      "probability": 0.3143785112359551,
      "estimated_impact": 4584,
      "latitude": 18.1446253597626,
      "longitude": 102.5825124769627,
      "validation_confidence": 1.0
    },
    {
      "country_name": "Saint Lucia",
      "region_name": "Americas",
      "district_name": "Anse-la-Raye",
      "predicted_date": "2025-09",
      "disaster_type_name": "Flood",
      "probability": 0.12017696629213483,
      "estimated_impact": 242,
      "latitude": 13.91096474778457,
      "longitude": -61.02167708525836,
      "validation_confidence": 1.0
    },
    {
      "country_name": "Philippines",
      "region_name": "Asia Pacific",
      "district_name": "Region I (Ilocos Region)",
      "predicted_date": "2025-09",
      "disaster_type_name": "Radiological Emergency",
      "probability": 0.03,
      "estimated_impact": 1000,
      "latitude": 16.90877955203328,
      "longitude": 120.4868696802655,
      "validation_confidence": 1.0
    },
    {
      "country_name": "Nicaragua",
      "region_name": "Americas",
      "district_name": "Boaco",
      "predicted_date": "2025-09",
      "disaster_type_name": "Flood",
      "probability": 0.22602247191011235,
      "estimated_impact": 176,
      "latitude": 12.44680774423442,
      "longitude": -85.5223455535505,
      "validation_confidence": 1.0
    },
    {
      "country_name": "Nicaragua",
      "region_name": "Americas",
      "district_name": "The North Caribbean Coast Autonomous Region",
      "predicted_date": "2025-09",
      "disaster_type_name": "Heat Wave",
      "probability": 0.02255625,
      "estimated_impact": 176,
      "latitude": 13.99594181755255,
      "longitude": -84.2214801891118,
      "validation_confidence": 1.0
    },
    {
      "country_name": "Saint Kitts and Nevis",
      "region_name": "Americas",
      "district_name": "Christ Church Nichola Town",
      "predicted_date": "2025-09",
      "disaster_type_name": "Cyclone",
      "probability": 0.38275,
      "estimated_impact": 402,
      "latitude": 17.36902473899156,
      "longitude": -62.77769131025678,
      "validation_confidence": 1.0
    },
    {
      "country_name": "Armenia",
      "region_name": "Europe",
      "district_name": "Aragatsotn",
      "predicted_date": "2025-09",
      "disaster_type_name": "Fire",
      "probability": 0.030592447916666664,
      "estimated_impact": 2658,
      "latitude": 40.43505588134348,
      "longitude": 44.11698384698195,
      "validation_confidence": 1.0
    },
    {
      "country_name": "Armenia",
      "region_name": "Europe",
      "district_name": "Ararat",
      "predicted_date": "2025-09",
      "disaster_type_name": "Drought",
      "probability": 0.02,
      "estimated_impact": 2658,
      "latitude": 39.95229748703109,
      "longitude": 44.7815375576935,
      "validation_confidence": 1.0
    },
    {
      "country_name": "Palau",
      "region_name": "Asia Pacific",
      "district_name": "Aimeliik",
      "predicted_date": "2025-09",
      "disaster_type_name": "Complex Emergency",
      "probability": 0.13515625,
      "estimated_impact": 4059,
      "latitude": 7.439638226280039,
      "longitude": 134.5056485010573,
      "validation_confidence": 1.0
    }
  ]
}